address,latitude,longitude,url
Ministop -  Trương Vĩnh Ký ,10.7943632,106.6282749,"https://www.google.com/maps/place/MINISTOP+Tr%C6%B0%C6%A1ng+V%C4%A9nh+K%C3%BD/@10.7943632,106.6282749,17z/data=!3m1!4b1!4m6!3m5!1s0x317529000c47913d:0xcea0eca8bf9ddacd!8m2!3d10.7943579!4d106.6308498!16s%2Fg%2F11y0dy1gr9?entry=ttu&g_ep=EgoyMDI1MTAyOS4yIKXMDSoASAFQAw%3D%3D"
Ministop -  Nguyễn Trãi 2 ,10.7550568,106.6486337,"https://www.google.com/maps/search/Ministop+-++Nguy%E1%BB%85n+Tr%C3%A3i+2+/@10.7550568,106.6486337,14z/data=!3m1!4b1?entry=ttu&g_ep=EgoyMDI1MTAyOS4yIKXMDSoASAFQAw%3D%3D"
Ministop -  Lê Văn Sỹ 2 ,10.7890534,106.6731239,"https://www.google.com/maps/search/Ministop+-++L%C3%AA+V%C4%83n+S%E1%BB%B9+2+/@10.7890534,106.6731239,17z/data=!3m1!4b1?entry=ttu&g_ep=EgoyMDI1MTAyOS4yIKXMDSoASAFQAw%3D%3D"
Ministop -  Scenic Valley 2 ,10.7313421,106.714723,"https://www.google.com/maps/place/MINISTOP+S268+-+SCENIC+VALLEY+2/@10.7313421,106.714723,17z/data=!3m1!4b1!4m6!3m5!1s0x31752f0051cd8381:0x85abd69c5c6fa519!8m2!3d10.7313368!4d106.7172979!16s%2Fg%2F11xz0js1mz?entry=ttu&g_ep=EgoyMDI1MTAyOS4yIKXMDSoASAFQAw%3D%3D"
Ministop -  Nơ Trang Long ,10.8047421,106.6925644,"https://www.google.com/maps/place/S267+Ministop/@10.8047421,106.6925644,17z/data=!3m1!4b1!4m6!3m5!1s0x317529004adb0c1f:0xa9619d04899e2cb0!8m2!3d10.8047368!4d106.6951393!16s%2Fg%2F11zhzcwjt6?entry=ttu&g_ep=EgoyMDI1MTAyOS4yIKXMDSoASAFQAw%3D%3D"
Ministop -  Trần Quốc Hoàn ,10.8058881,106.6616727,"https://www.google.com/maps/place/MINISTOP+-+TR%E1%BA%A6N+QU%E1%BB%90C+HO%C3%80N/@10.8058881,106.6616727,17z/data=!3m1!4b1!4m6!3m5!1s0x317529002bc94a43:0x69381db8ded344c4!8m2!3d10.8058828!4d106.6642476!16s%2Fg%2F11xncrd93n?entry=ttu&g_ep=EgoyMDI1MTAyOS4yIKXMDSoASAFQAw%3D%3D"
Ministop -  Võ Oanh ,10.8045212,106.7127994,"https://www.google.com/maps/search/Ministop+-++V%C3%B5+Oanh+/@10.8045212,106.7127994,17z/data=!3m1!4b1?entry=ttu&g_ep=EgoyMDI1MTAyOS4yIKXMDSoASAFQAw%3D%3D"
Ministop -  Tô Vĩnh Diện ,10.8523976,106.7641949,"https://www.google.com/maps/place/MINISTOP+S264+-+T%C3%94+V%C4%A8NH+DI%E1%BB%86N/@10.8523976,106.7641949,17z/data=!3m1!4b1!4m6!3m5!1s0x3175270067c951e1:0x7c0e13de2d04a91!8m2!3d10.8523923!4d106.7667698!16s%2Fg%2F11xlpl0qd_?entry=ttu&g_ep=EgoyMDI1MTAyOS4yIKXMDSoASAFQAw%3D%3D"
Ministop -  Hoàng Việt 3 ,10.7945186,106.6564844,"https://www.google.com/maps/search/Ministop+-++Ho%C3%A0ng+Vi%E1%BB%87t+3+/@10.7945186,106.6564844,18z/data=!3m1!4b1?entry=ttu&g_ep=EgoyMDI1MTAyOS4yIKXMDSoASAFQAw%3D%3D"
Ministop -  Đường số 20 ,10.8824519,106.7425725,"https://www.google.com/maps/search/Ministop+-++%C4%90%C6%B0%E1%BB%9Dng+s%E1%BB%91+20+/@10.8824519,106.7425725,12z/data=!3m1!4b1?entry=ttu&g_ep=EgoyMDI1MTAyOS4yIKXMDSoASAFQAw%3D%3D"
Ministop -  Đường số 1 ,10.8824519,106.7425725,"https://www.google.com/maps/search/Ministop+-++%C4%90%C6%B0%E1%BB%9Dng+s%E1%BB%91+1+/@10.8824519,106.7425725,12z/data=!3m1!4b1?entry=ttu&g_ep=EgoyMDI1MTAyOS4yIKXMDSoASAFQAw%3D%3D"
Ministop -  Lý Chính Thắng ,10.7789532,106.6792375,"https://www.google.com/maps/place/CHTL+Ministop+-+S260+-+L%C3%BD+Ch%C3%ADnh+Th%E1%BA%AFng/@10.7789532,106.6792375,17z/data=!3m1!4b1!4m6!3m5!1s0x31752f006ffb8135:0xcd8bf4d969c7c31f!8m2!3d10.7789479!4d106.6818124!16s%2Fg%2F11w4cb_56h?entry=ttu&g_ep=EgoyMDI1MTAyOS4yIKXMDSoASAFQAw%3D%3D"
Ministop -  Cư xá Phú Lâm ,10.7377262,106.6272347,"https://www.google.com/maps/place/CHTL+-+MINISTOP+-+259+-+C%C6%B0+x%C3%A1+Ph%C3%BA+L%C3%A2m+D/@10.7377262,106.6272347,17z/data=!3m1!4b1!4m6!3m5!1s0x31752f0067a8de63:0x712161c761860643!8m2!3d10.7377209!4d106.6298096!16s%2Fg%2F11wc9lm7rc?entry=ttu&g_ep=EgoyMDI1MTAyOS4yIKXMDSoASAFQAw%3D%3D"
Ministop -  Lê Minh Xuân ,10.7870904,106.6514923,"https://www.google.com/maps/place/CHTL+-+MINISTOP+-+S258+-+L%C3%AA+Minh+Xu%C3%A2n/@10.7870904,106.6514923,17z/data=!3m1!4b1!4m6!3m5!1s0x31752f0078501f95:0x83a3d5ad6fab7638!8m2!3d10.7870851!4d106.6540672!16s%2Fg%2F11w3vbqzf9?entry=ttu&g_ep=EgoyMDI1MTAyOS4yIKXMDSoASAFQAw%3D%3D"
Ministop -  Đường số 29 ,10.7568198,106.6091531,"https://www.google.com/maps/place/CHTL+-+MINISTOP+-+S257+-+%C4%90%C6%B0%E1%BB%9Dng+s%E1%BB%91+29/@10.7568198,106.6091531,17z/data=!3m1!4b1!4m6!3m5!1s0x31752d0009d9f3f5:0x7d10875e351a63b3!8m2!3d10.7568145!4d106.611728!16s%2Fg%2F11y6b46zks?entry=ttu&g_ep=EgoyMDI1MTAyOS4yIKXMDSoASAFQAw%3D%3D"
Ministop -  Tân Sơn Nhì 3 ,10.8825875,106.6601614,"https://www.google.com/maps/search/Ministop+-++T%C3%A2n+S%C6%A1n+Nh%C3%AC+3+/@10.8825875,106.6601614,11z/data=!3m1!4b1?entry=ttu&g_ep=EgoyMDI1MTAyOS4yIKXMDSoASAFQAw%3D%3D"
Ministop -  Tân Kỳ Tân Quý 3 ,10.7974518,106.6134251,"https://www.google.com/maps/search/Ministop+-++T%C3%A2n+K%E1%BB%B3+T%C3%A2n+Qu%C3%BD+3+/@10.7974518,106.6134251,15z/data=!3m1!4b1?entry=ttu&g_ep=EgoyMDI1MTAyOS4yIKXMDSoASAFQAw%3D%3D"
Ministop -  Alnata Plus – Celadon City ,10.8042277,106.6142255,"https://www.google.com/maps/search/Ministop+-++Alnata+Plus+%E2%80%93+Celadon+City+/@10.8042277,106.6142255,17z/data=!3m1!4b1?entry=ttu&g_ep=EgoyMDI1MTAyOS4yIKXMDSoASAFQAw%3D%3D"
Ministop -  Đường 154 ,10.8648534,106.8082382,"https://www.google.com/maps/place/Ministop+Topaz+Home+2/@10.8648534,106.8082382,17z/data=!3m1!4b1!4m6!3m5!1s0x3175270004299aa7:0x6027059844f6f3b1!8m2!3d10.8648481!4d106.8108131!16s%2Fg%2F11w3bv9qcq?entry=ttu&g_ep=EgoyMDI1MTAyOS4yIKXMDSoASAFQAw%3D%3D"
Ministop -  Tô Hiến Thành ,10.7805338,106.6665568,"https://www.google.com/maps/place/Ministop/@10.7805338,106.6665568,17z/data=!3m1!4b1!4m6!3m5!1s0x31752f0058cc8acd:0xe2388717e1b34937!8m2!3d10.7805285!4d106.6691317!16s%2Fg%2F11vzgg48fb?entry=ttu&g_ep=EgoyMDI1MTAyOS4yIKXMDSoASAFQAw%3D%3D"
Ministop -  Westgate ,10.6873755,106.5745475,"https://www.google.com/maps/search/Ministop+-++Westgate+/@10.6873755,106.5745475,16z/data=!3m1!4b1?entry=ttu&g_ep=EgoyMDI1MTAyOS4yIKXMDSoASAFQAw%3D%3D"
Ministop -  Chương Dương 2 ,10.8824519,106.7425725,"https://www.google.com/maps/search/Ministop+-++Ch%C6%B0%C6%A1ng+D%C6%B0%C6%A1ng+2+/@10.8824519,106.7425725,12z/data=!3m1!4b1?entry=ttu&g_ep=EgoyMDI1MTAyOS4yIKXMDSoASAFQAw%3D%3D"
Ministop -  UOA Tower ,10.7301259,106.7221183,"https://www.google.com/maps/place/Ministop+-+UOA+Tower/@10.7301259,106.7221183,17z/data=!3m1!4b1!4m6!3m5!1s0x31752500042a5461:0xebe8bf52a1f4bea1!8m2!3d10.7301206!4d106.7246932!16s%2Fg%2F11y3vq_2r4?entry=ttu&g_ep=EgoyMDI1MTAyOS4yIKXMDSoASAFQAw%3D%3D"
Ministop -  Mạc Đĩnh Chi 2 ,10.8825875,106.6601614,"https://www.google.com/maps/search/Ministop+-++M%E1%BA%A1c+%C4%90%C4%A9nh+Chi+2+/@10.8825875,106.6601614,11z/data=!3m1!4b1?entry=ttu&g_ep=EgoyMDI1MTAyOS4yIKXMDSoASAFQAw%3D%3D"
Ministop -  Điện Biên Phủ 2 ,10.7864585,106.6750093,"https://www.google.com/maps/search/Ministop+-++%C4%90i%E1%BB%87n+Bi%C3%AAn+Ph%E1%BB%A7+2+/@10.7864585,106.6750093,14z/data=!3m1!4b1?entry=ttu&g_ep=EgoyMDI1MTAyOS4yIKXMDSoASAFQAw%3D%3D"
Ministop -  Lê Quang Định 2 ,10.8142985,106.6871722,"https://www.google.com/maps/place/MINISTOP/@10.8142985,106.6871722,17z/data=!3m1!4b1!4m6!3m5!1s0x317528e85f757187:0xb16fd146e3121940!8m2!3d10.8142932!4d106.6897471!16s%2Fg%2F11cs16zn7w?entry=ttu&g_ep=EgoyMDI1MTAyOS4yIKXMDSoASAFQAw%3D%3D"
Ministop -  An Dương Vương ,10.7532628,106.6218358,"https://www.google.com/maps/place/MINISTOP+-+S243+-+An+D%C6%B0%C6%A1ng+V%C6%B0%C6%A1ng/@10.7532628,106.6218358,17z/data=!3m1!4b1!4m6!3m5!1s0x31752d0059628c91:0x4c7b780104f45cfe!8m2!3d10.7532575!4d106.6244107!16s%2Fg%2F11vx25nyg4?entry=ttu&g_ep=EgoyMDI1MTAyOS4yIKXMDSoASAFQAw%3D%3D"
Ministop -  Hòa Bình ,10.7834861,106.6299214,"https://www.google.com/maps/search/Ministop+-++H%C3%B2a+B%C3%ACnh+/@10.7834861,106.6299214,15z/data=!3m1!4b1?entry=ttu&g_ep=EgoyMDI1MTAyOS4yIKXMDSoASAFQAw%3D%3D"
Ministop -  Đại Lộ 3 ,10.8126338,106.7694172,"https://www.google.com/maps/place/Ministop+-+C%C4%90KT+%C4%90%E1%BB%91i+Ngo%E1%BA%A1i/@10.8126338,106.7694172,17z/data=!3m1!4b1!4m6!3m5!1s0x317526f674a4dd07:0xa861f71f0ce7c3a!8m2!3d10.8126285!4d106.7719921!16s%2Fg%2F11xdz_1_2?entry=ttu&g_ep=EgoyMDI1MTAyOS4yIKXMDSoASAFQAw%3D%3D"
Ministop -  Đường số 12 ,10.8181781,106.6421169,"https://www.google.com/maps/search/Ministop+-++%C4%90%C6%B0%E1%BB%9Dng+s%E1%BB%91+12+/@10.8181781,106.6421169,12z/data=!3m1!4b1?entry=ttu&g_ep=EgoyMDI1MTAyOS4yIKXMDSoASAFQAw%3D%3D"
Ministop -  Kha Vạn Cân  ,10.857044,106.754313,"https://www.google.com/maps/place/CHTL+-+MINISTOP+-+S240+-+Kha+V%E1%BA%A1n+C%C3%A2n/@10.857044,106.754313,17z/data=!3m1!4b1!4m6!3m5!1s0x3175270036bdf1e1:0x155c0075c207cf60!8m2!3d10.8570387!4d106.7568879!16s%2Fg%2F11vy3c27h3?entry=ttu&g_ep=EgoyMDI1MTAyOS4yIKXMDSoASAFQAw%3D%3D"
Ministop -  Đại học Văn Lang ,10.8825875,106.6601614,"https://www.google.com/maps/search/Ministop+-++%C4%90%E1%BA%A1i+h%E1%BB%8Dc+V%C4%83n+Lang+/@10.8825875,106.6601614,11z/data=!3m1!4b1?entry=ttu&g_ep=EgoyMDI1MTAyOS4yIKXMDSoASAFQAw%3D%3D"
Ministop -  Dương Đức Hiền ,10.8090078,106.6244186,"https://www.google.com/maps/place/Ministop+T%C3%A2y+Th%E1%BA%A1nh/@10.8090078,106.6244186,17z/data=!3m1!4b1!4m6!3m5!1s0x31752b0053c1a157:0x9332ea0246d89baf!8m2!3d10.8090025!4d106.6269935!16s%2Fg%2F11vps981by?entry=ttu&g_ep=EgoyMDI1MTAyOS4yIKXMDSoASAFQAw%3D%3D"
Ministop -  Hoàng Việt 2 ,10.7942072,106.6560323,"https://www.google.com/maps/search/Ministop+-++Ho%C3%A0ng+Vi%E1%BB%87t+2+/@10.7942072,106.6560323,17z/data=!3m1!4b1?entry=ttu&g_ep=EgoyMDI1MTAyOS4yIKXMDSoASAFQAw%3D%3D"
Ministop -  Âu Dương Lân ,10.7413223,106.6828071,"https://www.google.com/maps/place/MINISTOP+-+S234+-+%C3%82u+D%C6%B0%C6%A1ng+L%C3%A2n/@10.7413223,106.6828071,17z/data=!3m1!4b1!4m6!3m5!1s0x31752f000a2fc391:0xbc9ac2e0adb04b4d!8m2!3d10.741317!4d106.685382!16s%2Fg%2F11vs7_5srg?entry=ttu&g_ep=EgoyMDI1MTAyOS4yIKXMDSoASAFQAw%3D%3D"
Ministop -  Hoàng Hoa Thám 4 ,10.8825875,106.6601614,"https://www.google.com/maps/search/Ministop+-++Ho%C3%A0ng+Hoa+Th%C3%A1m+4+/@10.8825875,106.6601614,11z/data=!3m1!4b1?entry=ttu&g_ep=EgoyMDI1MTAyOS4yIKXMDSoASAFQAw%3D%3D"
Ministop -  Nguyễn Văn Lượng ,10.8398599,106.6644439,"https://www.google.com/maps/place/MINISTOP-S233/@10.8398599,106.6644439,17z/data=!3m1!4b1!4m6!3m5!1s0x317529fe448fa325:0xf201aa42b5fd24fd!8m2!3d10.8398546!4d106.6670188!16s%2Fg%2F11w3p1wg60?entry=ttu&g_ep=EgoyMDI1MTAyOS4yIKXMDSoASAFQAw%3D%3D"
Ministop -  Nguyễn Chí Thanh ,10.7589818,106.6625936,"https://www.google.com/maps/place/Ministop+-+Nguy%E1%BB%85n+Ch%C3%AD+Thanh/@10.7589818,106.6625936,17z/data=!3m1!4b1!4m6!3m5!1s0x31752f00726e7cf3:0xe89049e4163b538!8m2!3d10.7589765!4d106.6651685!16s%2Fg%2F11vk9g9hfq?entry=ttu&g_ep=EgoyMDI1MTAyOS4yIKXMDSoASAFQAw%3D%3D"
Ministop -  Bùi Văn Ba ,10.7505819,106.7325252,"https://www.google.com/maps/place/Ministop+B%C3%B9i+V%C4%83n+Ba/@10.7505819,106.7325252,17z/data=!3m1!4b1!4m6!3m5!1s0x317525005c8c9b25:0x4b0db4747142f9e!8m2!3d10.7505766!4d106.7351001!16s%2Fg%2F11vyj5ms1v?entry=ttu&g_ep=EgoyMDI1MTAyOS4yIKXMDSoASAFQAw%3D%3D"
Ministop -  Cityland Park Hills 2 ,10.8368383,106.6649755,"https://www.google.com/maps/place/Ministop/@10.8368383,106.6649755,17z/data=!3m1!4b1!4m6!3m5!1s0x3175292161caf477:0x479077db8b93dede!8m2!3d10.836833!4d106.6675504!16s%2Fg%2F11ftwg106f?entry=ttu&g_ep=EgoyMDI1MTAyOS4yIKXMDSoASAFQAw%3D%3D"
Ministop -  Khu dân cư Vĩnh Lộc ,10.8824519,106.7425725,"https://www.google.com/maps/search/Ministop+-++Khu+d%C3%A2n+c%C6%B0+V%C4%A9nh+L%E1%BB%99c+/@10.8824519,106.7425725,12z/data=!3m1!4b1?entry=ttu&g_ep=EgoyMDI1MTAyOS4yIKXMDSoASAFQAw%3D%3D"
Ministop -  Lạc Long Quân 3 ,10.780397,106.6386922,"https://www.google.com/maps/search/Ministop+-++La%CC%A3c+Long+Qu%C3%A2n+3+/@10.780397,106.6386922,14z/data=!3m1!4b1?entry=ttu&g_ep=EgoyMDI1MTAyOS4yIKXMDSoASAFQAw%3D%3D"
Ministop -  Đất Mới ,10.7726162,106.6065031,"https://www.google.com/maps/place/MINISTOP+-+S227+-+%C4%90%E1%BA%A5t+M%E1%BB%9Bi/@10.7726162,106.6065031,17z/data=!3m1!4b1!4m6!3m5!1s0x31752d003fbf1593:0x28173fc666ce9a84!8m2!3d10.7726109!4d106.609078!16s%2Fg%2F11ld86x5_s?entry=ttu&g_ep=EgoyMDI1MTAyOS4yIKXMDSoASAFQAw%3D%3D"
Ministop -  Phạm Văn Bạch ,10.8358562,106.6417647,"https://www.google.com/maps/place/Ministop+Ph%E1%BA%A1m+V%C4%83n+B%E1%BA%A1ch/@10.8358562,106.6417647,17z/data=!3m1!4b1!4m6!3m5!1s0x317529ee3567db43:0x9ff2b44d0824817!8m2!3d10.8358509!4d106.6443396!16s%2Fg%2F11vkrk5n3r?entry=ttu&g_ep=EgoyMDI1MTAyOS4yIKXMDSoASAFQAw%3D%3D"
Ministop -  Cao ốc Re ,10.8824519,106.7425725,"https://www.google.com/maps/search/Ministop+-++Cao+%E1%BB%91c+Re+/@10.8824519,106.7425725,12z/data=!3m1!4b1?entry=ttu&g_ep=EgoyMDI1MTAyOS4yIKXMDSoASAFQAw%3D%3D"
Ministop -  Phan Văn Đạt ,10.7752188,106.7025143,"https://www.google.com/maps/place/Mini+Stop/@10.7752188,106.7025143,17z/data=!3m1!4b1!4m6!3m5!1s0x31752fc70da97fa1:0xd2289a13ec3f93eb!8m2!3d10.7752135!4d106.7050892!16s%2Fg%2F11vdjhvrqr?entry=ttu&g_ep=EgoyMDI1MTAyOS4yIKXMDSoASAFQAw%3D%3D"
Ministop -  Lý Tự Trọng 3 ,10.7739983,106.6941487,"https://www.google.com/maps/place/Ministop+-+L%C3%BD+T%E1%BB%B1+Tr%E1%BB%8Dng+3/@10.7739983,106.6941487,17z/data=!3m1!4b1!4m6!3m5!1s0x31752f8dbc2e05d7:0x600a77e7b74b25b7!8m2!3d10.773993!4d106.6967236!16s%2Fg%2F11y1htdjpk?entry=ttu&g_ep=EgoyMDI1MTAyOS4yIKXMDSoASAFQAw%3D%3D"
Ministop -  Tân Quý 2 ,10.7974518,106.6134251,"https://www.google.com/maps/search/Ministop+-++T%C3%A2n+Qu%C3%BD+2+/@10.7974518,106.6134251,15z/data=!3m1!4b1?entry=ttu&g_ep=EgoyMDI1MTAyOS4yIKXMDSoASAFQAw%3D%3D"
Ministop -  Trần Bình Trọng ,10.8127108,106.6854112,"https://www.google.com/maps/place/MINISTOP/@10.8127108,106.6854112,17z/data=!3m1!4b1!4m6!3m5!1s0x3175295cffff2989:0x3d988226a14d5c63!8m2!3d10.8127055!4d106.6879861!16s%2Fg%2F11krtx7b82?entry=ttu&g_ep=EgoyMDI1MTAyOS4yIKXMDSoASAFQAw%3D%3D"
Ministop -  Lạc Long Quân 2 ,10.7647174,106.6362013,"https://www.google.com/maps/search/Ministop+-++L%E1%BA%A1c+Long+Qu%C3%A2n+2+/@10.7647174,106.6362013,16z/data=!3m1!4b1?entry=ttu&g_ep=EgoyMDI1MTAyOS4yIKXMDSoASAFQAw%3D%3D"
Ministop -  Thành Thái 3 ,10.7715608,106.658991,"https://www.google.com/maps/search/Ministop+-++Th%C3%A0nh+Th%C3%A1i+3+/@10.7715608,106.658991,15z/data=!3m1!4b1?entry=ttu&g_ep=EgoyMDI1MTAyOS4yIKXMDSoASAFQAw%3D%3D"
Ministop -  Mã Lò ,10.7770748,106.6076244,"https://www.google.com/maps/search/Ministop+-++M%C3%A3+L%C3%B2+/@10.7770748,106.6076244,14z/data=!3m1!4b1?entry=ttu&g_ep=EgoyMDI1MTAyOS4yIKXMDSoASAFQAw%3D%3D"
Ministop -  Lê Văn Thọ ,10.845886,106.6534872,"https://www.google.com/maps/search/Ministop+-++L%C3%AA+V%C4%83n+Th%E1%BB%8D+/@10.845886,106.6534872,15z/data=!3m1!4b1?entry=ttu&g_ep=EgoyMDI1MTAyOS4yIKXMDSoASAFQAw%3D%3D"
Ministop -  Lê Đức Thọ 2 ,10.8498155,106.653479,"https://www.google.com/maps/search/Ministop+-++L%C3%AA+%C4%90%E1%BB%A9c+Th%E1%BB%8D+2+/@10.8498155,106.653479,15z/data=!3m1!4b1?entry=ttu&g_ep=EgoyMDI1MTAyOS4yIKXMDSoASAFQAw%3D%3D"
Ministop -  Cư Xá Lữ Gia ,10.7670283,106.6386922,"https://www.google.com/maps/search/Ministop+-++C%C6%B0+X%C3%A1+L%E1%BB%AF+Gia+/@10.7670283,106.6386922,14z/data=!3m1!4b1?entry=ttu&g_ep=EgoyMDI1MTAyOS4yIKXMDSoASAFQAw%3D%3D"
Ministop -  Bệnh Viện Quân Y 175 ,10.8164496,106.6776773,"https://www.google.com/maps/place/Ministop+B%E1%BB%87nh+vi%E1%BB%87n+qu%C3%A2n+y/@10.8164496,106.6776773,17z/data=!3m1!4b1!4m6!3m5!1s0x31752996cb1c03a9:0x5bf536fd3cd97bb!8m2!3d10.8164443!4d106.6802522!16s%2Fg%2F11vj6xbj37?entry=ttu&g_ep=EgoyMDI1MTAyOS4yIKXMDSoASAFQAw%3D%3D"
Ministop -  Tân Kỳ Tân Quý 2 ,10.7985761,106.6139723,"https://www.google.com/maps/place/Ministop+S210+-+446+T%C3%A2n+K%E1%BB%B3+T%C3%A2n+Qu%C3%BD/@10.7985761,106.6139723,17z/data=!3m1!4b1!4m6!3m5!1s0x31752b2d5ecd5969:0x2616307ab6825485!8m2!3d10.7985708!4d106.6165472!16s%2Fg%2F11kqrg8sk2?entry=ttu&g_ep=EgoyMDI1MTAyOS4yIKXMDSoASAFQAw%3D%3D"
Ministop -  One Verandah ,10.7769014,106.748999,"https://www.google.com/maps/place/Ministop+One+Verandah/@10.7769014,106.748999,17z/data=!3m1!4b1!4m6!3m5!1s0x317525000c1ced8d:0xdd9e4e798fcefed7!8m2!3d10.7768961!4d106.7515739!16s%2Fg%2F11vpdlvtwk?entry=ttu&g_ep=EgoyMDI1MTAyOS4yIKXMDSoASAFQAw%3D%3D"
Ministop -  Đường số 01 ,10.8824519,106.7425725,"https://www.google.com/maps/search/Ministop+-++%C4%90%C6%B0%E1%BB%9Dng+s%E1%BB%91+01+/@10.8824519,106.7425725,12z/data=!3m1!4b1?entry=ttu&g_ep=EgoyMDI1MTAyOS4yIKXMDSoASAFQAw%3D%3D"
Ministop -  Âu Cơ 3 ,10.7877228,106.619141,"https://www.google.com/maps/search/Ministop+-++%C3%82u+C%C6%A1+3+/@10.7877228,106.619141,13z/data=!3m1!4b1?entry=ttu&g_ep=EgoyMDI1MTAyOS4yIKXMDSoASAFQAw%3D%3D"
Ministop -  Vườn Lài 3 ,10.7878457,106.6309805,"https://www.google.com/maps/place/MINISTOP+-+V%C6%B0%E1%BB%9Dn+L%C3%A0i/@10.7878457,106.6309805,17z/data=!3m1!4b1!4m6!3m5!1s0x31752eabe7858d9b:0xff6810d747e66634!8m2!3d10.7878404!4d106.6335554!16s%2Fg%2F11crzwdzw6?entry=ttu&g_ep=EgoyMDI1MTAyOS4yIKXMDSoASAFQAw%3D%3D"
Ministop -  Lý Tự Trọng 2 ,10.7742444,106.6950615,"https://www.google.com/maps/place/Ministop+-+L%C3%BD+T%E1%BB%B1+Tr%E1%BB%8Dng+2/@10.7742444,106.6950615,17z/data=!3m1!4b1!4m6!3m5!1s0x31752f5ee2a6f757:0x231cc6dfc458fd6!8m2!3d10.7742391!4d106.6976364!16s%2Fg%2F11svfntrzy?entry=ttu&g_ep=EgoyMDI1MTAyOS4yIKXMDSoASAFQAw%3D%3D"
Ministop -  Thạch Thị Thanh ,10.790455,106.6895403,"https://www.google.com/maps/place/MINISTOP+TH%E1%BA%A0CH+TH%E1%BB%8A+THANH/@10.790455,106.6895403,17z/data=!3m1!4b1!4m6!3m5!1s0x31752977661ab321:0xe94825b4124fd61!8m2!3d10.7904497!4d106.6921152!16s%2Fg%2F11ks077jsc?entry=ttu&g_ep=EgoyMDI1MTAyOS4yIKXMDSoASAFQAw%3D%3D"
Ministop -  Nguyễn Văn Khối ,10.8451488,106.6515686,"https://www.google.com/maps/place/Ministop/@10.8451488,106.6515686,17z/data=!3m1!4b1!4m6!3m5!1s0x317529f2a90c65dd:0x1e4becc9eae70918!8m2!3d10.8451435!4d106.6541435!16s%2Fg%2F11stbfx6yg?entry=ttu&g_ep=EgoyMDI1MTAyOS4yIKXMDSoASAFQAw%3D%3D"
Ministop -  Lý Thánh Tông ,10.7670707,106.6274667,"https://www.google.com/maps/place/Ministop+L%C3%BD+Th%C3%A1nh+T%C3%B4ng+-+S200/@10.7670707,106.6274667,17z/data=!3m1!4b1!4m6!3m5!1s0x31752f08c027c90b:0x54828d333b192a3!8m2!3d10.7670654!4d106.6300416!16s%2Fg%2F11st68zc7k?entry=ttu&g_ep=EgoyMDI1MTAyOS4yIKXMDSoASAFQAw%3D%3D"
Ministop -  Đường số 28 ,10.8437927,106.6785195,"https://www.google.com/maps/place/C%E1%BB%ADa+h%C3%A0ng+ti%E1%BB%87n+l%E1%BB%A3i+ministop/@10.8437927,106.6785195,17z/data=!3m1!4b1!4m6!3m5!1s0x317529001bc1daaf:0xb594d98674f820e0!8m2!3d10.8437874!4d106.6810944!16s%2Fg%2F11stdssk6c?entry=ttu&g_ep=EgoyMDI1MTAyOS4yIKXMDSoASAFQAw%3D%3D"
Ministop -  Đường số 59 ,10.8824519,106.7425725,"https://www.google.com/maps/search/Ministop+-++%C4%90%C6%B0%E1%BB%9Dng+s%E1%BB%91+59+/@10.8824519,106.7425725,12z/data=!3m1!4b1?entry=ttu&g_ep=EgoyMDI1MTAyOS4yIKXMDSoASAFQAw%3D%3D"
Ministop -  Huỳnh Văn Nghệ ,10.8297189,106.636088,"https://www.google.com/maps/place/Ministop+Hu%E1%BB%B3nh+V%C4%83n+Ngh%E1%BB%87/@10.8297189,106.636088,17z/data=!3m1!4b1!4m6!3m5!1s0x3175291691bb0c3b:0x3184fba11b21278a!8m2!3d10.8297136!4d106.6386629!16s%2Fg%2F11kqrggtpc?entry=ttu&g_ep=EgoyMDI1MTAyOS4yIKXMDSoASAFQAw%3D%3D"
Ministop -  Thạch Lam 2 ,10.7780014,106.6248688,"https://www.google.com/maps/search/Ministop+-++Th%E1%BA%A1ch+Lam+2+/@10.7780014,106.6248688,17z/data=!3m1!4b1?entry=ttu&g_ep=EgoyMDI1MTAyOS4yIKXMDSoASAFQAw%3D%3D"
Ministop -  Trịnh Đình Trọng 2 ,10.7756205,106.6368303,"https://www.google.com/maps/place/MINISTOP/@10.7756205,106.6368303,17z/data=!3m1!4b1!4m6!3m5!1s0x31752f4fe6ee2313:0x6c3cda2241cdcb63!8m2!3d10.7756152!4d106.6394052!16s%2Fg%2F11tjzm689g?entry=ttu&g_ep=EgoyMDI1MTAyOS4yIKXMDSoASAFQAw%3D%3D"
Ministop -  Bùi Quang Là ,10.8350651,106.6369839,"https://www.google.com/maps/place/MINISTOP/@10.8350651,106.6369839,17z/data=!3m1!4b1!4m6!3m5!1s0x317529fd3f45ac89:0x446f7a34c821a828!8m2!3d10.8350598!4d106.6395588!16s%2Fg%2F11jt4g1qq0?entry=ttu&g_ep=EgoyMDI1MTAyOS4yIKXMDSoASAFQAw%3D%3D"
Ministop -  Topaz City ,10.8648534,106.8082382,"https://www.google.com/maps/place/Ministop+Topaz+Home+2/@10.8648534,106.8082382,17z/data=!3m1!4b1!4m6!3m5!1s0x3175270004299aa7:0x6027059844f6f3b1!8m2!3d10.8648481!4d106.8108131!16s%2Fg%2F11w3bv9qcq?entry=ttu&g_ep=EgoyMDI1MTAyOS4yIKXMDSoASAFQAw%3D%3D"
Ministop -  Bàu Cát ,10.7906718,106.6437864,"https://www.google.com/maps/place/MINISTOP/@10.7906718,106.6437864,17z/data=!3m1!4b1!4m6!3m5!1s0x31752fd8f8f5d77b:0x6be2f87b8e291eb6!8m2!3d10.7906665!4d106.6463613!16s%2Fg%2F11js_wyd24?entry=ttu&g_ep=EgoyMDI1MTAyOS4yIKXMDSoASAFQAw%3D%3D"
Ministop -  Tân Kỳ Tân Quý ,10.7978681,106.6134251,"https://www.google.com/maps/search/Ministop+-++T%C3%A2n+K%E1%BB%B3+T%C3%A2n+Qu%C3%BD+/@10.7978681,106.6134251,15z/data=!3m1!4b1?entry=ttu&g_ep=EgoyMDI1MTAyOS4yIKXMDSoASAFQAw%3D%3D"
Ministop -  Phạm Văn Chí ,10.7680945,106.6336214,"https://www.google.com/maps/search/Ministop+-++Ph%E1%BA%A1m+V%C4%83n+Ch%C3%AD+/@10.7680945,106.6336214,14z/data=!3m1!4b1?entry=ttu&g_ep=EgoyMDI1MTAyOS4yIKXMDSoASAFQAw%3D%3D"
Ministop -  Đường số 10 ,10.7532768,106.6248323,"https://www.google.com/maps/place/Ministop/@10.7532768,106.6248323,17z/data=!3m1!4b1!4m6!3m5!1s0x31752d37bd48e7f5:0x8a79f93f7ef4be34!8m2!3d10.7532715!4d106.6274072!16s%2Fg%2F11s86f18rh?entry=ttu&g_ep=EgoyMDI1MTAyOS4yIKXMDSoASAFQAw%3D%3D"
Ministop -  Thạch Lam ,10.7780014,106.6248688,"https://www.google.com/maps/search/Ministop+-++Th%E1%BA%A1ch+Lam+/@10.7780014,106.6248688,17z/data=!3m1!4b1?entry=ttu&g_ep=EgoyMDI1MTAyOS4yIKXMDSoASAFQAw%3D%3D"
Ministop -  Water Point ,10.8824519,106.7425725,"https://www.google.com/maps/search/Ministop+-++Water+Point+/@10.8824519,106.7425725,12z/data=!3m1!4b1?entry=ttu&g_ep=EgoyMDI1MTAyOS4yIKXMDSoASAFQAw%3D%3D"
Ministop -  Akari City ,10.7174051,106.6048175,"https://www.google.com/maps/place/Aeon+Ministop+Akari+City+AK5/@10.7174051,106.6048175,17z/data=!3m1!4b1!4m6!3m5!1s0x31752d11b5c44b9f:0x7c85383277859d81!8m2!3d10.7173998!4d106.6073924!16s%2Fg%2F11t4cc6r10?entry=ttu&g_ep=EgoyMDI1MTAyOS4yIKXMDSoASAFQAw%3D%3D"
Ministop -  Đường số 6 ,10.8825875,106.6601614,"https://www.google.com/maps/search/Ministop+-++%C4%90%C6%B0%E1%BB%9Dng+s%E1%BB%91+6+/@10.8825875,106.6601614,11z/data=!3m1!4b1?entry=ttu&g_ep=EgoyMDI1MTAyOS4yIKXMDSoASAFQAw%3D%3D"
Ministop -  Vũ Tùng 2 ,10.8019755,106.6983945,"https://www.google.com/maps/search/Ministop+-++V%C5%A9+T%C3%B9ng+2+/@10.8019755,106.6983945,17z/data=!3m1!4b1?entry=ttu&g_ep=EgoyMDI1MTAyOS4yIKXMDSoASAFQAw%3D%3D"
Ministop -  Thống Nhất ,10.7907612,106.6311031,"https://www.google.com/maps/place/MINISTOP/@10.7907612,106.6311031,17z/data=!3m1!4b1!4m6!3m5!1s0x31752f92998d25af:0xf5b0d3d5c081e93a!8m2!3d10.7907559!4d106.633678!16s%2Fg%2F11s39m5s_v?entry=ttu&g_ep=EgoyMDI1MTAyOS4yIKXMDSoASAFQAw%3D%3D"
Ministop -  Lê Đức Thọ ,10.846327,106.6678692,"https://www.google.com/maps/place/MINISTOP+-+L%C3%AA+%C4%90%E1%BB%A9c+Th%E1%BB%8D/@10.846327,106.6678692,17z/data=!3m1!4b1!4m6!3m5!1s0x31752976c24363db:0xbec98fd9626dabe5!8m2!3d10.8463217!4d106.6704441!16s%2Fg%2F11syj81266?entry=ttu&g_ep=EgoyMDI1MTAyOS4yIKXMDSoASAFQAw%3D%3D"
Ministop -  Tô Hiệu ,10.769923,106.6242643,"https://www.google.com/maps/place/Ministop+T%C3%B4+Hi%E1%BB%87u/@10.769923,106.6242643,17z/data=!3m1!4b1!4m6!3m5!1s0x31752d0960436181:0x3d00848b49f7f57a!8m2!3d10.7699177!4d106.6268392!16s%2Fg%2F11rzs45rsb?entry=ttu&g_ep=EgoyMDI1MTAyOS4yIKXMDSoASAFQAw%3D%3D"
Ministop -  Võ Thành Trang ,10.7913312,106.6473707,"https://www.google.com/maps/place/Ministop+Vo+Thanh+Trang/@10.7913312,106.6473707,17z/data=!3m1!4b1!4m6!3m5!1s0x31752fea95c9df95:0x67ec8c44e6bb4ce8!8m2!3d10.7913259!4d106.6499456!16s%2Fg%2F11t6lbcklc?entry=ttu&g_ep=EgoyMDI1MTAyOS4yIKXMDSoASAFQAw%3D%3D"
Ministop -  Tôn Thất Hiệp ,10.7611862,106.649705,"https://www.google.com/maps/place/MINISTOP+T%C3%B4n+Th%E1%BA%A5t+Hi%E1%BB%87p/@10.7611862,106.649705,17z/data=!3m1!4b1!4m6!3m5!1s0x31752f791f966257:0x883f46f888ceff28!8m2!3d10.7611809!4d106.6522799!16s%2Fg%2F11t6y4n2vz?entry=ttu&g_ep=EgoyMDI1MTAyOS4yIKXMDSoASAFQAw%3D%3D"
Ministop -  Sunwah Pearl ,10.7887042,106.7157633,"https://www.google.com/maps/place/MINISTOP/@10.7887042,106.7157633,17z/data=!3m1!4b1!4m6!3m5!1s0x317529bc0e30cb97:0x2ed053856213a833!8m2!3d10.7886989!4d106.7183382!16s%2Fg%2F11q26250s8?entry=ttu&g_ep=EgoyMDI1MTAyOS4yIKXMDSoASAFQAw%3D%3D"
Ministop -  Safira D ,10.8824519,106.7425725,"https://www.google.com/maps/search/Ministop+-++Safira+D+/@10.8824519,106.7425725,12z/data=!3m1!4b1?entry=ttu&g_ep=EgoyMDI1MTAyOS4yIKXMDSoASAFQAw%3D%3D"
Ministop -  HaDo Centrosa Garden ,10.8824519,106.7425725,"https://www.google.com/maps/search/Ministop+-++HaDo+Centrosa+Garden+/@10.8824519,106.7425725,12z/data=!3m1!4b1?entry=ttu&g_ep=EgoyMDI1MTAyOS4yIKXMDSoASAFQAw%3D%3D"
Ministop -  Sài Gòn South ,10.7204259,106.7016547,"https://www.google.com/maps/place/MINISTOP+SAIGON+SOUTH/@10.7204259,106.7016547,17z/data=!3m1!4b1!4m6!3m5!1s0x31752f812b64f4cf:0x62e617975563ed87!8m2!3d10.7204206!4d106.7042296!16s%2Fg%2F11n103g8qb?entry=ttu&g_ep=EgoyMDI1MTAyOS4yIKXMDSoASAFQAw%3D%3D"
Ministop -  Saigon Royal ,10.7669559,106.701395,"https://www.google.com/maps/place/Ministop+Saigon+Royal/@10.7669559,106.701395,17z/data=!3m1!4b1!4m6!3m5!1s0x31752f6a75f3d199:0x82676162b98eaf9b!8m2!3d10.7669506!4d106.7039699!16s%2Fg%2F11rb61366v?entry=ttu&g_ep=EgoyMDI1MTAyOS4yIKXMDSoASAFQAw%3D%3D"
Ministop -  The CBD ,10.7618266,106.691057,"https://www.google.com/maps/search/Ministop+-++The+CBD+/@10.7618266,106.691057,13z/data=!3m1!4b1?entry=ttu&g_ep=EgoyMDI1MTAyOS4yIKXMDSoASAFQAw%3D%3D"
Ministop -  Trần Hưng Đạo ,10.7540758,106.6746323,"https://www.google.com/maps/place/MINISTOP/@10.7540758,106.6746323,17z/data=!3m1!4b1!4m6!3m5!1s0x31752f026ee37c6d:0x90cec6d253b5e012!8m2!3d10.7540705!4d106.6772072!16s%2Fg%2F11ljc_fcl8?entry=ttu&g_ep=EgoyMDI1MTAyOS4yIKXMDSoASAFQAw%3D%3D"
Ministop -  Điện Biên Phủ ,10.7864585,106.6750093,"https://www.google.com/maps/search/Ministop+-++%C4%90i%E1%BB%87n+Bi%C3%AAn+Ph%E1%BB%A7+/@10.7864585,106.6750093,14z/data=!3m1!4b1?entry=ttu&g_ep=EgoyMDI1MTAyOS4yIKXMDSoASAFQAw%3D%3D"
Ministop -  Bùi Đình Túy 2 ,10.8078102,106.7009507,"https://www.google.com/maps/search/Ministop+-++B%C3%B9i+%C4%90%C3%ACnh+T%C3%BAy+2+/@10.8078102,106.7009507,17z/data=!3m1!4b1?entry=ttu&g_ep=EgoyMDI1MTAyOS4yIKXMDSoASAFQAw%3D%3D"
Ministop -  Đại học Ngân Hàng ,10.8824519,106.7425725,"https://www.google.com/maps/search/Ministop+-++%C4%90%E1%BA%A1i+h%E1%BB%8Dc+Ng%C3%A2n+H%C3%A0ng+/@10.8824519,106.7425725,12z/data=!3m1!4b1?entry=ttu&g_ep=EgoyMDI1MTAyOS4yIKXMDSoASAFQAw%3D%3D"
Ministop -  Nguyễn Trãi ,10.7527929,106.6527634,"https://www.google.com/maps/place/MINISTOP/@10.7527929,106.6527634,17z/data=!3m1!4b1!4m6!3m5!1s0x31752faee0d81739:0x2c8c6fd591cf5121!8m2!3d10.7527876!4d106.6553383!16s%2Fg%2F11fnw0sqgz?entry=ttu&g_ep=EgoyMDI1MTAyOS4yIKXMDSoASAFQAw%3D%3D"
Ministop -  Palm Residence ,10.7921585,106.7586584,"https://www.google.com/maps/place/Ministop+Palm+Residence/@10.7921585,106.7586584,17z/data=!3m1!4b1!4m6!3m5!1s0x31752732ab42095b:0x2a6d15e6c1322530!8m2!3d10.7921532!4d106.7612333!16s%2Fg%2F11h58cynm1?entry=ttu&g_ep=EgoyMDI1MTAyOS4yIKXMDSoASAFQAw%3D%3D"
Ministop -  Homyland Riverside ,10.7894148,106.7660814,"https://www.google.com/maps/place/Ministop+Homyland+Riverside/@10.7894148,106.7660814,17z/data=!3m1!4b1!4m6!3m5!1s0x317527abe6891fff:0x43b240654865d4ed!8m2!3d10.7894095!4d106.7686563!16s%2Fg%2F11fr0cjpj4?entry=ttu&g_ep=EgoyMDI1MTAyOS4yIKXMDSoASAFQAw%3D%3D"
Ministop -  Cityland ,10.8825875,106.6601614,"https://www.google.com/maps/search/Ministop+-++Cityland+/@10.8825875,106.6601614,11z/data=!3m1!4b1?entry=ttu&g_ep=EgoyMDI1MTAyOS4yIKXMDSoASAFQAw%3D%3D"
Ministop -  Mai Thị Lựu ,10.790673,106.697038,"https://www.google.com/maps/place/MiniStop/@10.790673,106.697038,17z/data=!3m1!4b1!4m6!3m5!1s0x317529f326c87e9b:0x211096385b921809!8m2!3d10.7906677!4d106.6996129!16s%2Fg%2F11h_610dt_?entry=ttu&g_ep=EgoyMDI1MTAyOS4yIKXMDSoASAFQAw%3D%3D"
Ministop -  Ni Sư Huỳnh Liên ,10.7853157,106.6444196,"https://www.google.com/maps/search/Ministop+-++Ni+S%C6%B0+Hu%E1%BB%B3nh+Li%C3%AAn+/@10.7853157,106.6444196,17z/data=!3m1!4b1?entry=ttu&g_ep=EgoyMDI1MTAyOS4yIKXMDSoASAFQAw%3D%3D"
Ministop -  Masteri An Phú ,11.0185151,106.645988,"https://www.google.com/maps/place/C%C3%94NG+TY+TNHH+ABAY/@11.0185151,106.645988,17z/data=!3m1!4b1!4m6!3m5!1s0x317527f53b23061b:0xa6482d4ceef4a11b!8m2!3d11.0185098!4d106.6485629!16s%2Fg%2F11nyxrkmcw?entry=ttu&g_ep=EgoyMDI1MTAyOS4yIKXMDSoASAFQAw%3D%3D"
Ministop -  The Sun Avenue ,10.7851502,106.7459013,"https://www.google.com/maps/place/Ministop+Sun+Avenue/@10.7851502,106.7459013,17z/data=!3m1!4b1!4m6!3m5!1s0x3175256209df66f1:0x41fbe7f663720c6e!8m2!3d10.7851449!4d106.7484762!16s%2Fg%2F11fr0cn4dx?entry=ttu&g_ep=EgoyMDI1MTAyOS4yIKXMDSoASAFQAw%3D%3D"
Ministop -  Hồ Văn Huê ,10.80255,106.6613033,"https://www.google.com/maps/search/Ministop+-++H%E1%BB%93+V%C4%83n+Hu%C3%AA+/@10.80255,106.6613033,14z/data=!3m1!4b1?entry=ttu&g_ep=EgoyMDI1MTAyOS4yIKXMDSoASAFQAw%3D%3D"
Ministop -  Đảo Kim Cương ,10.7796074,106.7443691,"https://www.google.com/maps/place/MINISTOP/@10.7796074,106.7443691,17z/data=!3m1!4b1!4m6!3m5!1s0x31752511b4cfc54d:0x2593883397efdd9a!8m2!3d10.7796021!4d106.746944!16s%2Fg%2F11h0yg8xq0?entry=ttu&g_ep=EgoyMDI1MTAyOS4yIKXMDSoASAFQAw%3D%3D"
Ministop -  Vinhomes Golden River (Bason) ,10.7799858,106.6972438,"https://www.google.com/maps/search/Ministop+-++Vinhomes+Golden+River+(Bason)+/@10.7799858,106.6972438,15z/data=!3m1!4b1?entry=ttu&g_ep=EgoyMDI1MTAyOS4yIKXMDSoASAFQAw%3D%3D"
Ministop -  Đường 3/2 ,10.7715608,106.658991,"https://www.google.com/maps/search/Ministop+-++%C4%90%C6%B0%E1%BB%9Dng+3%2F2+/@10.7715608,106.658991,15z/data=!3m1!4b1?entry=ttu&g_ep=EgoyMDI1MTAyOS4yIKXMDSoASAFQAw%3D%3D"
Ministop -  Phùng Văn Cung ,10.8020447,106.6820863,"https://www.google.com/maps/place/MINISTOP-S123/@10.8020447,106.6820863,17z/data=!3m1!4b1!4m6!3m5!1s0x3175299e7efd92ad:0x88d612b73553d988!8m2!3d10.8020394!4d106.6846612!16s%2Fg%2F11kd9mtbvl?entry=ttu&g_ep=EgoyMDI1MTAyOS4yIKXMDSoASAFQAw%3D%3D"
Ministop -  Lê Thánh Tôn ,10.781533,106.7030973,"https://www.google.com/maps/place/Ministop+L%C3%AA+Th%C3%A1nh+T%C3%B4n/@10.781533,106.7030973,17z/data=!3m1!4b1!4m6!3m5!1s0x31752f18c38f26ef:0x450658968a441c1!8m2!3d10.7815277!4d106.7056722!16s%2Fg%2F11gy572bdc?entry=ttu&g_ep=EgoyMDI1MTAyOS4yIKXMDSoASAFQAw%3D%3D"
Ministop -  Hoàng Văn Thụ ,10.7959377,106.653933,"https://www.google.com/maps/place/MINISTOP/@10.7959377,106.653933,17z/data=!3m1!4b1!4m6!3m5!1s0x317529e6211c83ff:0x62e20f4c6646bab7!8m2!3d10.7959324!4d106.6565079!16s%2Fg%2F11fkl8wrnn?entry=ttu&g_ep=EgoyMDI1MTAyOS4yIKXMDSoASAFQAw%3D%3D"
Ministop -  Nguyễn Thái Bình 2 ,10.7680391,106.6959633,"https://www.google.com/maps/place/Ministop+Nguy%E1%BB%85n+Th%C3%A1i+B%C3%ACnh/@10.7680391,106.6959633,17z/data=!3m1!4b1!4m6!3m5!1s0x31752f035ebdb86b:0xcef0a3993cc93af4!8m2!3d10.7680338!4d106.6985382!16s%2Fg%2F11f5k2bwhz?entry=ttu&g_ep=EgoyMDI1MTAyOS4yIKXMDSoASAFQAw%3D%3D"
Ministop -  Phổ Quang 2 ,10.8074116,106.66574,"https://www.google.com/maps/search/Ministop+-++Ph%E1%BB%95+Quang+2+/@10.8074116,106.66574,17z/data=!3m1!4b1?entry=ttu&g_ep=EgoyMDI1MTAyOS4yIKXMDSoASAFQAw%3D%3D"
Ministop -  Nguyễn Văn Nguyễn ,10.7917241,106.6852879,"https://www.google.com/maps/place/Ministop+Nguyen+Van+Nguyen/@10.7917241,106.6852879,17z/data=!3m1!4b1!4m6!3m5!1s0x317528d29cdf7119:0x4c9f27ff8825d038!8m2!3d10.7917188!4d106.6878628!16s%2Fg%2F11ggmgt8qj?entry=ttu&g_ep=EgoyMDI1MTAyOS4yIKXMDSoASAFQAw%3D%3D"
Ministop -  Nguyễn Cảnh Chân ,10.7581064,106.6859936,"https://www.google.com/maps/place/MINISTOP+Nguy%E1%BB%85n+C%E1%BA%A3nh+Ch%C3%A2n/@10.7581064,106.6859936,17z/data=!3m1!4b1!4m6!3m5!1s0x31752fa0d63f4303:0x6468aec8016a5d50!8m2!3d10.7581011!4d106.6885685!16s%2Fg%2F11gh4mb3t0?entry=ttu&g_ep=EgoyMDI1MTAyOS4yIKXMDSoASAFQAw%3D%3D"
Ministop -  New City Thủ Thiêm ,10.7822228,106.7335189,"https://www.google.com/maps/place/Ministop+New+City/@10.7822228,106.7335189,17z/data=!3m1!4b1!4m6!3m5!1s0x317525e34fedf0ef:0xecee2d2cbabb516c!8m2!3d10.7822175!4d106.7360938!16s%2Fg%2F11gf5s4130?entry=ttu&g_ep=EgoyMDI1MTAyOS4yIKXMDSoASAFQAw%3D%3D"
Ministop -  Trần Trọng Cung ,10.7437782,106.7293423,"https://www.google.com/maps/place/MINISTOP/@10.7437782,106.7293423,17z/data=!3m1!4b1!4m6!3m5!1s0x3175257883c17f19:0x8424a570432a7313!8m2!3d10.7437729!4d106.7319172!16s%2Fg%2F11f3n9_wvg?entry=ttu&g_ep=EgoyMDI1MTAyOS4yIKXMDSoASAFQAw%3D%3D"
Ministop -  Suối Tiên ,10.866065,106.799861,"https://www.google.com/maps/place/MINISTOP/@10.866065,106.799861,17z/data=!3m1!4b1!4m6!3m5!1s0x3175275971ad014d:0x39d693bae6626097!8m2!3d10.8660597!4d106.8024359!16s%2Fg%2F11h9rwsfv9?entry=ttu&g_ep=EgoyMDI1MTAyOS4yIKXMDSoASAFQAw%3D%3D"
Ministop -  Thành Thái 2 ,10.7721607,106.6617877,"https://www.google.com/maps/search/Ministop+-++Th%C3%A0nh+Th%C3%A1i+2+/@10.7721607,106.6617877,17z/data=!3m1!4b1?entry=ttu&g_ep=EgoyMDI1MTAyOS4yIKXMDSoASAFQAw%3D%3D"
Ministop -  Hutech 2 ,10.8824519,106.7425725,"https://www.google.com/maps/search/Ministop+-++Hutech+2+/@10.8824519,106.7425725,12z/data=!3m1!4b1?entry=ttu&g_ep=EgoyMDI1MTAyOS4yIKXMDSoASAFQAw%3D%3D"
Ministop -  Nguyễn Cửu Vân ,10.795626,106.704723,"https://www.google.com/maps/place/MINISTOP/@10.795626,106.704723,17z/data=!3m1!4b1!4m6!3m5!1s0x317528b13efc091d:0x10632743d9c26a64!8m2!3d10.7956207!4d106.7072979!16s%2Fg%2F11f2rwc162?entry=ttu&g_ep=EgoyMDI1MTAyOS4yIKXMDSoASAFQAw%3D%3D"
Ministop -  Vạn Kiếp 2 ,10.8009331,106.6921551,"https://www.google.com/maps/search/Ministop+-++V%E1%BA%A1n+Ki%E1%BA%BFp+2+/@10.8009331,106.6921551,18z/data=!3m1!4b1?entry=ttu&g_ep=EgoyMDI1MTAyOS4yIKXMDSoASAFQAw%3D%3D"
Ministop -  Phú Thọ ,10.7584196,106.6389945,"https://www.google.com/maps/place/Ministop/@10.7584196,106.6389945,17z/data=!3m1!4b1!4m6!3m5!1s0x31752e8fed95449f:0x96e5798e137267a1!8m2!3d10.7584143!4d106.6415694!16s%2Fg%2F11f15hw5lw?entry=ttu&g_ep=EgoyMDI1MTAyOS4yIKXMDSoASAFQAw%3D%3D"
Ministop -  Đại Học Hồng Bàng ,10.7983828,106.6803634,"https://www.google.com/maps/search/Ministop+-++%C4%90%E1%BA%A1i+H%E1%BB%8Dc+H%E1%BB%93ng+B%C3%A0ng+/@10.7983828,106.6803634,14z/data=!3m1!4b1?entry=ttu&g_ep=EgoyMDI1MTAyOS4yIKXMDSoASAFQAw%3D%3D"
Ministop -  Bình Giã ,10.8005275,106.6421452,"https://www.google.com/maps/place/Ministop+-+B%C3%ACnh+Gi%C3%A3/@10.8005275,106.6421452,17z/data=!3m1!4b1!4m6!3m5!1s0x3175294f1d1bff07:0xf02e34a4e07349ca!8m2!3d10.8005222!4d106.6447201!16s%2Fg%2F11f5bxhsth?entry=ttu&g_ep=EgoyMDI1MTAyOS4yIKXMDSoASAFQAw%3D%3D"
Ministop -  Cao Thắng 2 ,10.7741532,106.6615376,"https://www.google.com/maps/search/Ministop+-++Cao+Th%E1%BA%AFng+2+/@10.7741532,106.6615376,15z/data=!3m1!4b1?entry=ttu&g_ep=EgoyMDI1MTAyOS4yIKXMDSoASAFQAw%3D%3D"
Ministop -  Nguyễn Trọng Tuyển 2 ,10.8822528,106.8043749,"https://www.google.com/maps/search/Ministop+-++Nguy%E1%BB%85n+Tr%E1%BB%8Dng+Tuy%E1%BB%83n+2+/@10.8822528,106.8043749,14z?entry=ttu&g_ep=EgoyMDI1MTAyOS4yIKXMDSoASAFQAw%3D%3D"
Ministop -  Thích Quảng Đức ,10.8056182,106.6791831,"https://www.google.com/maps/place/Ministop/@10.8056182,106.6791831,17z/data=!3m1!4b1!4m6!3m5!1s0x317528d95bcf658d:0x1827e2d1cb9e6cc4!8m2!3d10.8056129!4d106.681758!16s%2Fg%2F11h9zgpv4_?entry=ttu&g_ep=EgoyMDI1MTAyOS4yIKXMDSoASAFQAw%3D%3D"
Ministop -  Ung Văn Khiêm ,10.8099458,106.7123391,"https://www.google.com/maps/place/MINISTOP/@10.8099458,106.7123391,17z/data=!3m1!4b1!4m6!3m5!1s0x31752965c338adcb:0xf4a95584f7e67a9d!8m2!3d10.8099405!4d106.714914!16s%2Fg%2F11ghfpq22z?entry=ttu&g_ep=EgoyMDI1MTAyOS4yIKXMDSoASAFQAw%3D%3D"
Ministop -  Hoàng Diệu ,10.8825875,106.6601614,"https://www.google.com/maps/search/Ministop+-++Ho%C3%A0ng+Di%E1%BB%87u+/@10.8825875,106.6601614,11z/data=!3m1!4b1?entry=ttu&g_ep=EgoyMDI1MTAyOS4yIKXMDSoASAFQAw%3D%3D"
Ministop -  Bệnh Viện Nhi Đồng 1 Khu Ngoại Trú ,10.8825875,106.6601614,"https://www.google.com/maps/search/Ministop+-++B%E1%BB%87nh+Vi%E1%BB%87n+Nhi+%C4%90%E1%BB%93ng+1+Khu+Ngo%E1%BA%A1i+Tr%C3%BA+/@10.8825875,106.6601614,11z/data=!3m1!4b1?entry=ttu&g_ep=EgoyMDI1MTAyOS4yIKXMDSoASAFQAw%3D%3D"
Ministop -  Masteri Thảo Điền ,10.8044732,106.7313625,"https://www.google.com/maps/search/Ministop+-++Masteri+Th%E1%BA%A3o+%C4%90i%E1%BB%81n+/@10.8044732,106.7313625,16z/data=!3m1!4b1?entry=ttu&g_ep=EgoyMDI1MTAyOS4yIKXMDSoASAFQAw%3D%3D"
Ministop -  Bành Văn Trân ,10.7885781,106.6539611,"https://www.google.com/maps/place/MINISTOP/@10.7885781,106.6539611,17z/data=!3m1!4b1!4m6!3m5!1s0x31752ecba5e127d5:0x80ef701978196e72!8m2!3d10.7885728!4d106.656536!16s%2Fg%2F11f0866pgn?entry=ttu&g_ep=EgoyMDI1MTAyOS4yIKXMDSoASAFQAw%3D%3D"
Ministop -  Nguyễn Lâm ,10.7636817,106.6608684,"https://www.google.com/maps/place/MINISTOP/@10.7636817,106.6608684,17z/data=!3m1!4b1!4m6!3m5!1s0x31752eef4c418ebb:0xaed6636c33062029!8m2!3d10.7636764!4d106.6634433!16s%2Fg%2F11f_p2x8f0?entry=ttu&g_ep=EgoyMDI1MTAyOS4yIKXMDSoASAFQAw%3D%3D"
Ministop -  Thành Thái ,10.7721607,106.6617877,"https://www.google.com/maps/search/Ministop+-++Th%C3%A0nh+Th%C3%A1i+/@10.7721607,106.6617877,17z/data=!3m1!4b1?entry=ttu&g_ep=EgoyMDI1MTAyOS4yIKXMDSoASAFQAw%3D%3D"
Ministop -  Lý Nam Đế ,10.760906,106.6569385,"https://www.google.com/maps/place/Ministop+L%C3%BD+Nam+%C4%90%E1%BA%BF/@10.760906,106.6569385,17z/data=!3m1!4b1!4m6!3m5!1s0x31752eee6509f737:0xdec9428921968aca!8m2!3d10.7609007!4d106.6595134!16s%2Fg%2F11f57whf9y?entry=ttu&g_ep=EgoyMDI1MTAyOS4yIKXMDSoASAFQAw%3D%3D"
Ministop -  Nguyễn Thiện Thuật 2 ,10.8822528,106.8043749,"https://www.google.com/maps/search/Ministop+-++Nguy%E1%BB%85n+Thi%E1%BB%87n+Thu%E1%BA%ADt+2+/@10.8822528,106.8043749,14z?entry=ttu&g_ep=EgoyMDI1MTAyOS4yIKXMDSoASAFQAw%3D%3D"
Ministop -  Trần Nhân Tôn ,10.8822528,106.8043749,"https://www.google.com/maps/search/Ministop+-++Tr%E1%BA%A7n+Nh%C3%A2n+T%C3%B4n+/@10.8822528,106.8043749,14z?entry=ttu&g_ep=EgoyMDI1MTAyOS4yIKXMDSoASAFQAw%3D%3D"
Ministop -  Bùi Đình Túy ,10.8078102,106.7009507,"https://www.google.com/maps/search/Ministop+-++B%C3%B9i+%C4%90%C3%ACnh+T%C3%BAy+/@10.8078102,106.7009507,17z/data=!3m1!4b1?entry=ttu&g_ep=EgoyMDI1MTAyOS4yIKXMDSoASAFQAw%3D%3D"
Ministop -  Đinh Bộ Lĩnh ,10.8822528,106.8043749,"https://www.google.com/maps/place/MINISTOP/@10.8822528,106.8043749,14z/data=!4m6!3m5!1s0x31752897cc352d4b:0xe60b318d7c4da837!8m2!3d10.8092953!4d106.7090864!16s%2Fg%2F11c60063kk?entry=ttu&g_ep=EgoyMDI1MTAyOS4yIKXMDSoASAFQAw%3D%3D"
Ministop -  Vũ Tông Phan ,10.8822528,106.8043749,"https://www.google.com/maps/place/Ministop+Vu+Tong+Phan/@10.8822528,106.8043749,14z/data=!4m6!3m5!1s0x3175261275f934bd:0xf84c37ce15bb39d!8m2!3d10.7978134!4d106.7428493!16s%2Fg%2F11csr6xmsg?entry=ttu&g_ep=EgoyMDI1MTAyOS4yIKXMDSoASAFQAw%3D%3D"
Ministop -  Bình Thới ,10.8822528,106.8043749,"https://www.google.com/maps/place/MINISTOP/@10.8822528,106.8043749,14z/data=!4m6!3m5!1s0x31752e95aa6ffffd:0x726dda7e0fb9ee13!8m2!3d10.7675984!4d106.6496975!16s%2Fg%2F11c6lbp7p_?entry=ttu&g_ep=EgoyMDI1MTAyOS4yIKXMDSoASAFQAw%3D%3D"
Ministop -  Hoàng Hoa Thám 2 ,10.8010608,106.6489079,"https://www.google.com/maps/search/Ministop+-++Ho%C3%A0ng+Hoa+Th%C3%A1m+2+/@10.8010608,106.6489079,14z/data=!3m1!4b1?entry=ttu&g_ep=EgoyMDI1MTAyOS4yIKXMDSoASAFQAw%3D%3D"
Ministop -  Trần Quý Cáp ,10.8822528,106.8043749,"https://www.google.com/maps/place/Ministop/@10.8822528,106.8043749,14z/data=!4m6!3m5!1s0x317528ebeb79e5b3:0x6db724724cf5df80!8m2!3d10.8155772!4d106.6953528!16s%2Fg%2F11g027y9_z?entry=ttu&g_ep=EgoyMDI1MTAyOS4yIKXMDSoASAFQAw%3D%3D"
Ministop -  Sư Vạn Hạnh ,10.8822528,106.8043749,"https://www.google.com/maps/search/Ministop+-++S%C6%B0+V%E1%BA%A1n+H%E1%BA%A1nh+/@10.8822528,106.8043749,14z?entry=ttu&g_ep=EgoyMDI1MTAyOS4yIKXMDSoASAFQAw%3D%3D"
Ministop -  Trần Quốc Toản,10.7880953,106.6862241,"https://www.google.com/maps/place/MINISTOP/@10.7880953,106.6862241,17z/data=!3m1!4b1!4m6!3m5!1s0x31752f3299feb5b3:0xe084d7b4ee205d1a!8m2!3d10.78809!4d106.688799!16s%2Fg%2F11cs2h8csp?entry=ttu&g_ep=EgoyMDI1MTAyOS4yIKXMDSoASAFQAw%3D%3D"
Ministop -  Khu cư xá Bình Thới ,10.7617588,106.6457778,"https://www.google.com/maps/place/MINISTOP/@10.7617588,106.6457778,17z/data=!3m1!4b1!4m6!3m5!1s0x31752e924a10bc49:0x969ce52c43ac1aa!8m2!3d10.7617535!4d106.6483527!16s%2Fg%2F11g0209c1y?entry=ttu&g_ep=EgoyMDI1MTAyOS4yIKXMDSoASAFQAw%3D%3D"
Ministop -  Nguyễn Du ,10.8257706,106.6832544,"https://www.google.com/maps/place/MINISTOP/@10.8257706,106.6832544,17z/data=!3m1!4b1!4m6!3m5!1s0x317528fa5a0e254f:0xc6c52c15dd7f6a69!8m2!3d10.8257653!4d106.6858293!16s%2Fg%2F11c533_126?entry=ttu&g_ep=EgoyMDI1MTAyOS4yIKXMDSoASAFQAw%3D%3D"
Ministop -  Xóm Chiếu ,10.7553503,106.7070591,"https://www.google.com/maps/place/MINISTOP+-+X%C3%B3m+Chi%E1%BA%BFu/@10.7553503,106.7070591,17z/data=!3m1!4b1!4m6!3m5!1s0x31752f4a56d68ae7:0xd3851d5f9536972c!8m2!3d10.755345!4d106.709634!16s%2Fg%2F11y21kkkpt?entry=ttu&g_ep=EgoyMDI1MTAyOS4yIKXMDSoASAFQAw%3D%3D"
Ministop -  Lê Quang Định ,10.810326,106.6881509,"https://www.google.com/maps/search/Ministop+-++L%C3%AA+Quang+%C4%90%E1%BB%8Bnh+/@10.810326,106.6881509,16z/data=!3m1!4b1?entry=ttu&g_ep=EgoyMDI1MTAyOS4yIKXMDSoASAFQAw%3D%3D"
Ministop -  Trần Đình Xu ,10.8822528,106.8043749,"https://www.google.com/maps/place/MINISTOP+-+Tr%E1%BA%A7n+%C4%90%C3%ACnh+Xu/@10.8822528,106.8043749,14z/data=!4m6!3m5!1s0x31752f10b726059d:0x28f131b567e63f1c!8m2!3d10.762161!4d106.689194!16s%2Fg%2F11c2lk7cq_?entry=ttu&g_ep=EgoyMDI1MTAyOS4yIKXMDSoASAFQAw%3D%3D"
Ministop -   KTX Đại Học Quốc Gia (Khu A) ,10.8822528,106.8043749,"https://www.google.com/maps/search/Ministop+-+++KTX+%C4%90%E1%BA%A1i+H%E1%BB%8Dc+Qu%E1%BB%91c+Gia+(Khu+A)+/@10.8822528,106.8043749,14z?entry=ttu&g_ep=EgoyMDI1MTAyOS4yIKXMDSoASAFQAw%3D%3D"
Ministop -  Hoa Sứ ,10.8822528,106.8043749,"https://www.google.com/maps/place/MINISTOP/@10.8822528,106.8043749,14z/data=!4m6!3m5!1s0x317528cfefc2fd41:0x85ab313e0fe688a8!8m2!3d10.7999295!4d106.688888!16s%2Fg%2F11c1tz0dlx?entry=ttu&g_ep=EgoyMDI1MTAyOS4yIKXMDSoASAFQAw%3D%3D"
Ministop -  Nam Kỳ Khởi Nghĩa ,10.7723788,106.6978513,"https://www.google.com/maps/place/Ministop+Nam+K%E1%BB%B3+Kh%E1%BB%9Fi+Ngh%C4%A9a/@10.7723788,106.6978513,17z/data=!3m1!4b1!4m6!3m5!1s0x31752f40ae8ab241:0xc19751f218efa750!8m2!3d10.7723735!4d106.7004262!16s%2Fg%2F11c1ncvy9q?entry=ttu&g_ep=EgoyMDI1MTAyOS4yIKXMDSoASAFQAw%3D%3D"
Ministop -  Vũ Huy Tấn ,10.8822528,106.8043749,"https://www.google.com/maps/place/Ministop/@10.8822528,106.8043749,14z/data=!4m6!3m5!1s0x317528c94e59e51b:0x8c16578afdbd48be!8m2!3d10.795789!4d106.6942671!16s%2Fg%2F11cm0x2bds?entry=ttu&g_ep=EgoyMDI1MTAyOS4yIKXMDSoASAFQAw%3D%3D"
Ministop -  Đào Duy Từ ,10.7606132,106.6655058,"https://www.google.com/maps/place/MINISTOP+-+%C4%90%C3%A0o+Duy+T%E1%BB%AB/@10.7606132,106.6655058,17z/data=!3m1!4b1!4m6!3m5!1s0x31752ee4fa3d3fa7:0x3cf2e9daee10a139!8m2!3d10.7606079!4d106.6680807!16s%2Fg%2F11c55j96w0?entry=ttu&g_ep=EgoyMDI1MTAyOS4yIKXMDSoASAFQAw%3D%3D"
Ministop -  Nguyễn Trọng Tuyển ,10.8822528,106.8043749,"https://www.google.com/maps/search/Ministop+-++Nguy%E1%BB%85n+Tr%E1%BB%8Dng+Tuy%E1%BB%83n+/@10.8822528,106.8043749,14z?entry=ttu&g_ep=EgoyMDI1MTAyOS4yIKXMDSoASAFQAw%3D%3D"
Ministop -  Vườn Lài ,10.7878457,106.6309805,"https://www.google.com/maps/place/MINISTOP+-+V%C6%B0%E1%BB%9Dn+L%C3%A0i/@10.7878457,106.6309805,17z/data=!3m1!4b1!4m6!3m5!1s0x31752eabe7858d9b:0xff6810d747e66634!8m2!3d10.7878404!4d106.6335554!16s%2Fg%2F11crzwdzw6?entry=ttu&g_ep=EgoyMDI1MTAyOS4yIKXMDSoASAFQAw%3D%3D"
Ministop -  Thăng Long ,10.8023021,106.6578496,"https://www.google.com/maps/place/MINISTOP+-+Th%C4%83ng+Long/@10.8023021,106.6578496,17z/data=!3m1!4b1!4m6!3m5!1s0x3175293a75c2e4af:0xc3d10960b1db2d8f!8m2!3d10.8022968!4d106.6604245!16s%2Fg%2F11c1r7gcxt?entry=ttu&g_ep=EgoyMDI1MTAyOS4yIKXMDSoASAFQAw%3D%3D"
Ministop -  Nguyễn Gia Trí ,10.8043926,106.7134517,"https://www.google.com/maps/place/Ministop+Vo+Oanh/@10.8043926,106.7134517,17z/data=!3m1!4b1!4m6!3m5!1s0x317529acfbdb1863:0xa9a8653f253d6af6!8m2!3d10.8043873!4d106.7160266!16s%2Fg%2F11t7dw7kc9?entry=ttu&g_ep=EgoyMDI1MTAyOS4yIKXMDSoASAFQAw%3D%3D"
Ministop -  Trần Khắc Chân ,10.7944532,106.6883116,"https://www.google.com/maps/place/MINISTOP+-+Tr%E1%BA%A7n+Kh%E1%BA%AFc+Ch%C3%A2n/@10.7944532,106.6883116,17z/data=!3m1!4b1!4m6!3m5!1s0x317528cdcd673b07:0xa74bdd01cc537b69!8m2!3d10.7944479!4d106.6908865!16s%2Fg%2F11c187w8sh?entry=ttu&g_ep=EgoyMDI1MTAyOS4yIKXMDSoASAFQAw%3D%3D"
Ministop -  Phạm Văn Hai ,10.7912591,106.6592374,"https://www.google.com/maps/place/MINISTOP/@10.7912591,106.6592374,17z/data=!3m1!4b1!4m6!3m5!1s0x31752932d4caaa59:0x25aea94eb7fc902f!8m2!3d10.7912538!4d106.6618123!16s%2Fg%2F11c135dmy_?entry=ttu&g_ep=EgoyMDI1MTAyOS4yIKXMDSoASAFQAw%3D%3D"
Ministop -  Nguyễn Biểu  ,10.7572484,106.6805535,"https://www.google.com/maps/place/MINISTOP+-+Nguy%E1%BB%85n+Bi%E1%BB%83u/@10.7572484,106.6805535,17z/data=!3m1!4b1!4m6!3m5!1s0x31752f8ecdbd49f9:0x63fb6ab00ed6c2a1!8m2!3d10.7572431!4d106.6831284!16s%2Fg%2F11sjp81cf0?entry=ttu&g_ep=EgoyMDI1MTAyOS4yIKXMDSoASAFQAw%3D%3D"
Ministop -  Trương Công Định,10.7964797,106.6383426,"https://www.google.com/maps/place/MINISTOP+-+Truong+Cong+Dinh/@10.7964797,106.6383426,17z/data=!3m1!4b1!4m6!3m5!1s0x3175294d8aaa746f:0xf19309f6fbe8ecf1!8m2!3d10.7964744!4d106.6409175!16s%2Fg%2F11c1r6w2x8?entry=ttu&g_ep=EgoyMDI1MTAyOS4yIKXMDSoASAFQAw%3D%3D"
Ministop -  Bạch Đằng 2,10.8153671,106.6663656,"https://www.google.com/maps/search/Ministop+-++B%E1%BA%A1ch+%C4%90%E1%BA%B1ng+2/@10.8153671,106.6663656,16z/data=!3m1!4b1?entry=ttu&g_ep=EgoyMDI1MTAyOS4yIKXMDSoASAFQAw%3D%3D"
Ministop -  Ngô Tất Tố,10.7929844,106.7085423,"https://www.google.com/maps/place/Ministop+Ngo+Tat+To/@10.7929844,106.7085423,17z/data=!3m1!4b1!4m6!3m5!1s0x317528adf5a45f43:0xb56a1b4ac744cdb6!8m2!3d10.7929791!4d106.7111172!16s%2Fg%2F11c55tnm_f?entry=ttu&g_ep=EgoyMDI1MTAyOS4yIKXMDSoASAFQAw%3D%3D"
Ministop -  Hậu Giang,10.8079012,106.6598583,"https://www.google.com/maps/place/Ministop+-+H%E1%BA%ADu+Giang/@10.8079012,106.6598583,17z/data=!3m1!4b1!4m6!3m5!1s0x3175293c9c881bfd:0x93b83ccb85e4f199!8m2!3d10.8078959!4d106.6624332!16s%2Fg%2F11c4wxbf93?entry=ttu&g_ep=EgoyMDI1MTAyOS4yIKXMDSoASAFQAw%3D%3D"
Ministop -  Phạm Viết Chánh 2,10.7903744,106.7069333,"https://www.google.com/maps/place/MINISTOP/@10.7903744,106.7069333,17z/data=!3m1!4b1!4m6!3m5!1s0x317528b2e8bc9441:0x2c40b6357726853b!8m2!3d10.7903691!4d106.7095082!16s%2Fg%2F11g6lzff40?entry=ttu&g_ep=EgoyMDI1MTAyOS4yIKXMDSoASAFQAw%3D%3D"
Ministop -  Hutech (Điện Biên Phủ),10.8025425,106.7120654,"https://www.google.com/maps/place/MINISTOP+HUTECH/@10.8025425,106.7120654,17z/data=!3m1!4b1!4m6!3m5!1s0x317528a450d7cb9f:0xf65d8cc95cd2683f!8m2!3d10.8025372!4d106.7146403!16s%2Fg%2F11c4nwfd12?entry=ttu&g_ep=EgoyMDI1MTAyOS4yIKXMDSoASAFQAw%3D%3D"
Ministop -  Hoàng Hoa Thám,10.8010608,106.6489079,"https://www.google.com/maps/search/Ministop+-++Ho%C3%A0ng+Hoa+Th%C3%A1m/@10.8010608,106.6489079,14z/data=!3m1!4b1?entry=ttu&g_ep=EgoyMDI1MTAyOS4yIKXMDSoASAFQAw%3D%3D"
Ministop -  Hòa Hưng,10.7789447,106.6714275,"https://www.google.com/maps/place/MINISTOP/@10.7789447,106.6714275,17z/data=!3m1!4b1!4m6!3m5!1s0x31752ed831ca4493:0xce862cc97fa883ee!8m2!3d10.7789394!4d106.6740024!16s%2Fg%2F1pwfbcylk?entry=ttu&g_ep=EgoyMDI1MTAyOS4yIKXMDSoASAFQAw%3D%3D"
Ministop -  Cư Xá Đô Thành,10.7721552,106.6784504,"https://www.google.com/maps/place/MINISTOP+-+C%C6%B0+x%C3%A1+%C4%90%C3%B4+Th%C3%A0nh/@10.7721552,106.6784504,17z/data=!3m1!4b1!4m6!3m5!1s0x31752f216c08e221:0xf8f5818f6e0c5d2d!8m2!3d10.7721499!4d106.6810253!16s%2Fg%2F11b6x9_srz?entry=ttu&g_ep=EgoyMDI1MTAyOS4yIKXMDSoASAFQAw%3D%3D"
Ministop -  Nguyễn Thượng Hiền,10.8058554,106.6833246,"https://www.google.com/maps/place/MINISTOP/@10.8058554,106.6833246,17z/data=!3m1!4b1!4m6!3m5!1s0x317528db7ad95891:0xc488a7759540df44!8m2!3d10.8058501!4d106.6858995!16s%2Fg%2F11btrs8q7d?entry=ttu&g_ep=EgoyMDI1MTAyOS4yIKXMDSoASAFQAw%3D%3D"
Ministop -  Trần Doãn Khanh,10.7886722,106.6951751,"https://www.google.com/maps/place/MINISTOP/@10.7886722,106.6951751,17z/data=!3m1!4b1!4m6!3m5!1s0x31752f3530228871:0x9ed43bba8815786!8m2!3d10.7886669!4d106.69775!16s%2Fg%2F11c5ssqzxz?entry=ttu&g_ep=EgoyMDI1MTAyOS4yIKXMDSoASAFQAw%3D%3D"
MINISTOP -  Bạch Đằng,10.8153671,106.6663656,"https://www.google.com/maps/search/MINISTOP+-++B%E1%BA%A1ch+%C4%90%E1%BA%B1ng/@10.8153671,106.6663656,16z/data=!3m1!4b1?entry=ttu&g_ep=EgoyMDI1MTAyOS4yIKXMDSoASAFQAw%3D%3D"
MINISTOP -  Nguyễn Hồng Đào,10.7930084,106.6395866,"https://www.google.com/maps/place/Ministop/@10.7930084,106.6395866,17z/data=!3m1!4b1!4m6!3m5!1s0x3175294d4edea821:0xca237e6c06bb6378!8m2!3d10.7930031!4d106.6421615!16s%2Fg%2F11b67njyft?entry=ttu&g_ep=EgoyMDI1MTAyOS4yIKXMDSoASAFQAw%3D%3D"
MINISTOP -  Trần Thiện Chánh,10.7715321,106.6680244,"https://www.google.com/maps/place/Ministop/@10.7715321,106.6680244,17z/data=!3m1!4b1!4m6!3m5!1s0x31752ede7e57aebd:0x7db7b8720bd9fc5f!8m2!3d10.7715268!4d106.6705993!16s%2Fg%2F11c56btzlz?entry=ttu&g_ep=EgoyMDI1MTAyOS4yIKXMDSoASAFQAw%3D%3D"
MINISTOP -  Lam Sơn,10.8099839,106.6641478,"https://www.google.com/maps/place/Ministop+-+Lam+S%C6%A1n/@10.8099839,106.6641478,17z/data=!3m1!4b1!4m6!3m5!1s0x31752922fa50e7c1:0x8eaf0ee7bf9ff645!8m2!3d10.8099786!4d106.6667227!16s%2Fg%2F11xh733fq?entry=ttu&g_ep=EgoyMDI1MTAyOS4yIKXMDSoASAFQAw%3D%3D"
